[
  {
    "id": "p001",
    "destination": "인천_근교",
    "name": "송도 센트럴파크",
    "category": "view",
    "lat": 37.392,
    "lng": 126.639,
    "curtail_count": 4,
    "is_outdoor": true,
    "no_kids_zone": false,
    "break_time": null,
    "naver_url": "https://map.naver.com/p001",
    "backup_place_id": "p002",
    "last_verified": "2026-06-01",
    "notes": "유모차 동선 양호",
    "tags": [],
    "stroller_friendly": true,
    "has_nursing_room": false
  },
  {
    "id": "p002",
    "destination": "인천_근교",
    "name": "트리플스트리트 카페거리",
    "category": "cafe",
    "lat": 37.388,
    "lng": 126.642,
    "curtail_count": 3,
    "is_outdoor": false,
    "no_kids_zone": false,
    "break_time": null,
    "naver_url": "https://map.naver.com/p002",
    "backup_place_id": null,
    "last_verified": "2026-06-01",
    "notes": null,
    "tags": [],
    "stroller_friendly": false,
    "has_nursing_room": false
  },
  {
    "id": "p003",
    "destination": "인천_근교",
    "name": "강화도 동막해변",
    "category": "view",
    "lat": 37.712,
    "lng": 126.429,
    "curtail_count": 5,
    "is_outdoor": true,
    "no_kids_zone": false,
    "break_time": null,
    "naver_url": "https://map.naver.com/p003",
    "backup_place_id": "p004",
    "last_verified": "2026-05-20",
    "notes": "모래사장 — 아이 신발 여분",
    "tags": [],
    "stroller_friendly": false,
    "has_nursing_room": false
  },
  {
    "id": "p004",
    "destination": "인천_근교",
    "name": "강화 카페 드 포레",
    "category": "cafe",
    "lat": 37.705,
    "lng": 126.435,
    "curtail_count": 2,
    "is_outdoor": false,
    "no_kids_zone": false,
    "break_time": "15:00-17:00",
    "naver_url": "https://map.naver.com/p004",
    "backup_place_id": null,
    "last_verified": "2026-05-20",
    "notes": null,
    "tags": [],
    "stroller_friendly": false,
    "has_nursing_room": false
  },
  {
    "id": "p005",
    "destination": "인천_근교",
    "name": "월미도 해양공원",
    "category": "activity",
    "lat": 37.466,
    "lng": 126.593,
    "curtail_count": 4,
    "is_outdoor": true,
    "no_kids_zone": false,
    "break_time": null,
    "naver_url": "https://map.naver.com/p005",
    "backup_place_id": "p006",
    "last_verified": "2026-06-01",
    "notes": "놀이기구 키 제한 확인",
    "tags": [],
    "stroller_friendly": true,
    "has_nursing_room": false
  },
  {
    "id": "p006",
    "destination": "인천_근교",
    "name": "월미 문화거리 식당",
    "category": "meal",
    "lat": 37.468,
    "lng": 126.595,
    "curtail_count": 3,
    "is_outdoor": false,
    "no_kids_zone": false,
    "break_time": null,
    "naver_url": "https://map.naver.com/p006",
    "backup_place_id": null,
    "last_verified": "2026-06-01",
    "notes": "아이 의자 있음",
    "tags": [],
    "stroller_friendly": false,
    "has_nursing_room": false
  },
  {
    "id": "p007",
    "destination": "인천_근교",
    "name": "루프탑 와인바 센트럴",
    "category": "cafe",
    "lat": 37.39,
    "lng": 126.638,
    "curtail_count": 2,
    "is_outdoor": false,
    "no_kids_zone": true,
    "break_time": null,
    "naver_url": "https://map.naver.com/p007",
    "backup_place_id": null,
    "last_verified": "2026-05-15",
    "notes": "성인 전용",
    "tags": [],
    "stroller_friendly": false,
    "has_nursing_room": false
  },
  {
    "id": "p008",
    "destination": "인천_근교",
    "name": "송도 키즈카페 플레이타운",
    "category": "kids",
    "lat": 37.385,
    "lng": 126.645,
    "curtail_count": 3,
    "is_outdoor": false,
    "no_kids_zone": false,
    "break_time": null,
    "naver_url": "https://map.naver.com/p008",
    "backup_place_id": null,
    "last_verified": "2026-06-01",
    "notes": "양말 필수",
    "tags": [],
    "stroller_friendly": true,
    "has_nursing_room": true
  },
  {
    "id": "p009",
    "destination": "인천_근교",
    "name": "영종도 바다횟집",
    "category": "meal",
    "lat": 37.448,
    "lng": 126.372,
    "curtail_count": 4,
    "is_outdoor": false,
    "no_kids_zone": false,
    "break_time": null,
    "naver_url": "https://map.naver.com/p009",
    "backup_place_id": null,
    "last_verified": "2026-05-25",
    "notes": "회 주문 시 아이 메뉴 별도",
    "tags": [],
    "stroller_friendly": false,
    "has_nursing_room": false
  },
  {
    "id": "p010",
    "destination": "인천_근교",
    "name": "영종 하늘공원",
    "category": "activity",
    "lat": 37.455,
    "lng": 126.38,
    "curtail_count": 3,
    "is_outdoor": true,
    "no_kids_zone": false,
    "break_time": null,
    "naver_url": "https://map.naver.com/p010",
    "backup_place_id": "p009",
    "last_verified": "2026-05-25",
    "notes": null,
    "tags": [],
    "stroller_friendly": false,
    "has_nursing_room": false
  }
]
